City_ID,City,Country,Lat,Lng,Max Temp,Humidity,Cloudiness,Wind Speed,Current Description
0,Clinton,US,42.587,-82.9199,88.95,45,20,1.01,few clouds
1,Ostrovnoy,RU,68.0531,39.5131,42.96,66,26,13.29,scattered clouds
2,Puerto Colombia,CO,10.9878,-74.9547,87.89,65,100,4.61,overcast clouds
3,Punta Arenas,CL,-53.15,-70.9167,43.38,71,100,9.33,overcast clouds
4,Nelson Bay,AU,-32.7167,152.15,53.96,87,1,7.2,clear sky
5,New Norfolk,AU,-42.7826,147.0587,51.93,85,100,4.61,overcast clouds
6,Busselton,AU,-33.65,115.3333,51.08,71,28,8.52,scattered clouds
7,Vostok,RU,46.4856,135.8833,44.89,94,97,3.27,overcast clouds
8,Hami,CN,42.8,93.45,71.76,12,28,16.35,scattered clouds
9,Broome,US,42.2506,-75.833,86.63,51,40,3.0,scattered clouds
10,College,US,64.8569,-147.8028,57.15,65,40,4.61,scattered clouds
11,Brae,GB,60.3964,-1.353,53.51,74,35,8.59,scattered clouds
12,Dikson,RU,73.5069,80.5464,30.72,88,100,11.79,overcast clouds
13,Longyearbyen,SJ,78.2186,15.6401,40.84,70,0,10.36,clear sky
14,Luba,GQ,3.4568,8.5547,76.68,86,100,3.24,overcast clouds
15,Kapaa,US,22.0752,-159.319,75.52,82,75,1.01,light rain
16,Vila Franca Do Campo,PT,37.7167,-25.4333,68.41,76,99,5.7,overcast clouds
17,Porosozero,RU,62.7191,32.727,67.75,53,100,8.55,overcast clouds
18,Nanortalik,GL,60.1432,-45.2371,45.37,67,100,13.22,overcast clouds
19,Paamiut,GL,61.994,-49.6678,37.18,98,100,3.33,light rain
20,Qaanaaq,GL,77.484,-69.3632,39.74,84,84,4.65,broken clouds
21,Cape Town,ZA,-33.9258,18.4232,74.1,27,49,11.72,scattered clouds
22,Hithadhoo,MV,-0.6,73.0833,83.55,71,82,11.86,broken clouds
23,Tashtyp,RU,52.7939,89.8983,46.13,94,94,3.76,overcast clouds
24,Isangel,VU,-19.55,169.2667,71.62,68,100,12.68,overcast clouds
25,Ushuaia,AR,-54.8,-68.3,38.86,70,75,5.75,broken clouds
26,Ahipara,NZ,-35.1667,173.1667,60.66,91,100,12.64,light rain
27,Vaini,TO,-21.2,-175.2,75.6,65,69,15.86,broken clouds
28,Rikitea,PF,-23.1203,-134.9692,76.44,82,97,14.7,light rain
29,Samarai,PG,-10.6167,150.6667,77.74,90,100,17.36,light rain
30,Mar Del Plata,AR,-38.0023,-57.5575,57.0,65,30,5.01,scattered clouds
31,Port Elizabeth,ZA,-33.918,25.5701,69.1,30,0,5.66,clear sky
32,Plaeng Yao,TH,13.5847,101.284,89.17,85,100,6.78,heavy intensity rain
33,Shimoda,JP,34.6667,138.95,68.16,92,100,9.17,overcast clouds
34,Ewa Beach,US,21.3156,-158.0072,75.15,76,1,10.0,clear sky
35,Atuona,PF,-9.8,-139.0333,79.16,66,68,11.12,broken clouds
36,Cabo San Lucas,MX,22.8909,-109.9124,97.81,51,43,5.01,scattered clouds
37,Hualmay,PE,-11.0964,-77.6139,67.06,73,77,10.29,broken clouds
38,Nuuk,GL,64.1835,-51.7216,45.21,87,75,13.8,light rain
39,Port Macquarie,AU,-31.4333,152.9167,47.37,70,2,5.86,clear sky
40,Novo Aripuana,BR,-5.1206,-60.3797,93.25,45,16,4.41,few clouds
41,Riyadh,SA,24.6877,46.7219,106.32,6,2,6.6,clear sky
42,Mataura,NZ,-46.1927,168.8643,44.06,86,99,2.08,overcast clouds
43,Chokurdakh,RU,70.6333,147.9167,34.36,90,100,8.01,light rain
44,Albany,US,42.6001,-73.9662,88.92,47,56,1.01,broken clouds
45,Marzuq,YE,14.4,46.4667,89.2,26,6,6.44,clear sky
46,Saint-Philippe,RE,-21.3585,55.7679,72.99,83,73,12.57,light rain
47,Hobart,AU,-42.8794,147.3294,52.27,87,99,1.99,overcast clouds
48,Waipawa,NZ,-41.4122,175.5153,52.43,88,100,1.01,light rain
49,Kyshtovka,RU,56.555,76.6271,60.44,78,6,11.01,clear sky
50,Pevek,RU,69.7008,170.3133,45.93,78,28,11.34,scattered clouds
51,East London,ZA,-33.0153,27.9116,66.47,53,0,12.3,clear sky
52,Bredasdorp,ZA,-34.5322,20.0403,59.29,41,11,6.49,few clouds
53,Hilo,US,19.7297,-155.09,71.28,84,90,3.44,overcast clouds
54,Lebu,CL,-37.6167,-73.65,50.34,70,100,1.34,overcast clouds
55,Fougamou,GA,-1.2154,10.5838,82.67,82,61,0.58,light rain
56,Touros,BR,-5.1989,-35.4608,76.1,68,41,14.97,scattered clouds
57,Cayenne,GF,4.9333,-52.3333,86.04,70,75,6.35,broken clouds
58,Terney,RU,45.0503,136.6092,51.82,92,9,6.87,clear sky
59,Honiara,SB,-9.4333,159.95,77.14,89,12,4.68,few clouds
60,Buluang,PH,13.3068,123.3425,78.46,91,99,2.84,overcast clouds
61,Port Blair,IN,11.6667,92.75,84.24,77,95,13.15,overcast clouds
62,Campbell River,CA,50.0163,-125.2446,52.59,81,100,4.68,overcast clouds
63,Katsuura,JP,35.1333,140.3,70.11,90,100,6.11,overcast clouds
64,Avarua,CK,-21.2078,-159.775,68.05,77,90,3.44,overcast clouds
65,Fortuna,US,40.5982,-124.1573,58.93,70,20,3.0,few clouds
66,Namatanai,PG,-3.6667,152.4333,79.29,84,100,5.68,light rain
67,Pakokku,MM,21.3333,95.1,86.76,55,93,7.61,overcast clouds
68,Magistralnyy,RU,56.1725,107.4458,43.36,92,100,2.19,overcast clouds
69,Labuhan,ID,-6.8844,112.2051,80.11,81,67,4.68,broken clouds
70,Havre-Saint-Pierre,CA,50.2334,-63.5986,50.36,67,11,12.97,few clouds
71,Maceio,BR,-9.6658,-35.7353,83.64,69,75,8.61,broken clouds
72,Barrow,US,71.2906,-156.7887,30.22,93,90,9.22,mist
73,Carnarvon,AU,-24.8667,113.6333,62.67,77,40,9.22,scattered clouds
74,Nome,US,64.5011,-165.4064,35.67,93,90,6.91,light rain
75,Torbay,CA,47.6666,-52.7314,57.38,94,90,16.11,light rain
76,Hermanus,ZA,-34.4187,19.2345,59.81,45,9,7.25,clear sky
77,Georgetown,MY,5.4112,100.3354,82.33,83,20,1.01,few clouds
78,Kodiak,US,57.79,-152.4072,53.11,50,1,19.57,clear sky
79,Ustye,RU,59.6304,39.736,72.59,56,16,4.41,few clouds
80,Tiksi,RU,71.6872,128.8694,42.12,69,85,8.25,overcast clouds
81,Castro,BR,-24.7911,-50.0119,74.88,43,95,6.87,overcast clouds
82,Maldonado,UY,-34.6667,-54.9167,56.59,64,4,7.49,clear sky
83,Havre,FR,49.5833,0.3333,69.44,82,40,6.46,scattered clouds
84,Peterhead,GB,57.5058,-1.7981,56.44,82,88,9.33,overcast clouds
85,Tuktoyaktuk,CA,69.4541,-133.0374,34.27,77,12,6.62,few clouds
86,Thompson,CA,55.7435,-97.8558,68.58,54,100,3.4,overcast clouds
87,Vanavara,RU,60.34,102.2797,36.75,66,1,5.7,clear sky
88,Makakilo City,US,21.3469,-158.0858,73.72,68,20,14.09,few clouds
89,Lompoc,US,34.6391,-120.4579,60.48,83,90,1.99,mist
90,Manuk Mangkaw,PH,4.8,119.85,83.97,71,50,4.9,scattered clouds
91,Bandarbeyla,SO,9.4942,50.8122,80.82,80,4,29.68,clear sky
92,Sinnamary,GF,5.3833,-52.95,77.0,89,82,11.07,broken clouds
93,Vardo,NO,70.3705,31.1107,46.6,61,40,13.8,scattered clouds
94,Russell,US,32.3502,-85.1999,83.91,65,75,1.9,broken clouds
95,Belmonte,BR,-15.8631,-38.8828,81.1,65,36,8.72,scattered clouds
96,Erdenet,MN,49.0333,104.0833,36.63,97,100,7.27,overcast clouds
97,Cherskiy,RU,68.75,161.3,59.2,52,38,12.35,scattered clouds
98,Yellowknife,CA,62.456,-114.3525,45.32,70,100,5.99,overcast clouds
99,Luderitz,NA,-26.6481,15.1594,66.74,42,0,2.04,clear sky
100,Jamestown,US,42.097,-79.2353,83.3,49,1,11.01,clear sky
101,Chuy,UY,-33.6971,-53.4616,58.23,64,100,6.58,overcast clouds
102,Winsum,NL,53.33,6.5208,64.98,88,42,12.53,scattered clouds
103,Bluff,NZ,-46.6,168.3333,46.27,84,63,5.37,broken clouds
104,Mana,GF,5.6592,-53.7767,79.56,86,72,8.88,broken clouds
105,Ranavav,IN,21.6842,69.7408,85.91,67,2,12.62,clear sky
106,Salto Del Guaira,PY,-24.0625,-54.3069,77.34,43,85,2.21,overcast clouds
107,Adrar,MR,20.5022,-10.0711,110.1,8,2,20.45,clear sky
108,Cidreira,BR,-30.1811,-50.2056,64.04,80,100,8.21,overcast clouds
109,Nanchong,CN,30.7951,106.0847,77.94,60,99,2.95,overcast clouds
110,Geraldton,AU,-28.7667,114.6,55.13,87,97,11.23,overcast clouds
111,Saskylakh,RU,71.9167,114.0833,37.18,67,96,6.04,overcast clouds
112,Puerto Ayora,EC,-0.7393,-90.3518,80.56,86,26,7.0,scattered clouds
113,Souillac,MU,-20.5167,57.5167,73.36,83,32,9.8,light rain
114,Deyang,CN,31.1302,104.382,68.16,47,100,1.01,overcast clouds
115,Port Hardy,CA,50.6996,-127.4199,50.18,87,90,12.66,light rain
116,Beneditinos,BR,-5.45,-42.3667,88.93,34,11,4.68,few clouds
117,Mahebourg,MU,-20.4081,57.7,73.26,81,23,9.57,few clouds
118,Aklavik,CA,68.2191,-135.0107,34.52,67,89,6.58,overcast clouds
119,Umm Lajj,SA,25.0213,37.2685,84.67,58,0,13.65,clear sky
120,Scarborough,GB,54.2797,-0.4044,64.83,77,77,1.99,broken clouds
121,Ribeira Grande,PT,38.5167,-28.7,68.4,83,40,13.8,scattered clouds
122,Port Lincoln,AU,-34.7333,135.8667,58.78,60,66,16.13,broken clouds
123,San Patricio,US,28.017,-97.5169,88.21,67,1,12.01,clear sky
124,Hanko,FI,59.8333,22.95,69.85,76,80,13.73,broken clouds
125,Tura,IN,25.5198,90.2201,74.73,96,39,9.01,scattered clouds
126,Norman Wells,CA,65.282,-126.8329,42.84,93,90,13.8,light rain
127,Albenga,IT,44.0529,8.216,77.56,69,100,3.0,overcast clouds
128,Tual,ID,-5.6667,132.75,81.21,79,96,14.7,overcast clouds
129,Evensk,RU,61.95,159.2333,46.87,81,96,6.02,overcast clouds
130,Deer Lake,CA,49.1667,-57.4316,63.37,39,100,8.12,overcast clouds
131,Inhambane,MZ,-23.865,35.3833,68.56,68,79,11.56,broken clouds
132,Shingu,JP,33.7333,135.9833,68.58,84,100,3.11,overcast clouds
133,Airai,TL,-8.9266,125.4092,56.39,88,98,2.89,overcast clouds
134,Harnosand,SE,62.6323,17.9379,71.62,74,63,8.32,broken clouds
135,Esperance,AU,-33.8667,121.9,60.49,69,57,25.93,light rain
136,Camacha,PT,33.0833,-16.3333,67.42,64,40,19.57,scattered clouds
137,Toora-Khem,RU,52.4675,96.11,40.93,87,95,4.56,overcast clouds
138,Bengkulu,ID,-3.8004,102.2655,74.89,90,13,4.43,few clouds
139,Les Cayes,HT,18.2,-73.75,87.89,56,15,10.54,few clouds
140,Karratha,AU,-20.7377,116.8463,75.38,70,100,6.8,overcast clouds
141,Pokhara,NP,28.2333,83.9833,76.42,61,79,3.36,broken clouds
142,Kieta,PG,-6.2167,155.6333,78.21,86,25,5.06,light rain
143,Saint George,US,37.1041,-113.5841,93.67,14,1,3.0,clear sky
144,Bayan,CN,46.0833,127.4,54.61,90,23,5.21,few clouds
145,Vitorino Freire,BR,-4.0667,-45.1667,87.06,51,3,7.25,clear sky
146,Arraial Do Cabo,BR,-22.9661,-42.0278,84.06,58,0,10.36,clear sky
147,Vetluga,RU,57.8557,45.781,68.83,68,18,4.36,few clouds
148,Codrington,AU,-38.2667,141.9667,55.17,72,100,16.84,overcast clouds
149,Xinzhou,CN,38.4092,112.7333,72.27,25,98,6.06,overcast clouds
150,Nanma,CN,36.1817,118.1583,73.62,45,64,5.41,light rain
151,Shelburne,CA,44.0787,-80.2041,86.27,33,100,13.96,overcast clouds
152,Bahir Dar,ET,11.5936,37.3908,76.59,29,49,4.76,scattered clouds
153,Kaitangata,NZ,-46.2817,169.8464,44.2,85,73,2.04,broken clouds
154,Yining,CN,29.0361,114.5636,69.94,85,94,2.24,light rain
155,Alofi,NU,-19.0595,-169.9187,75.56,64,90,13.67,overcast clouds
156,Nouadhibou,MR,20.931,-17.0347,69.53,71,42,23.69,scattered clouds
157,Victoria,HK,22.2855,114.1577,82.45,84,15,7.0,few clouds
158,Kahului,US,20.8947,-156.47,74.84,77,20,10.36,few clouds
159,Hurghada,EG,27.2574,33.8129,86.74,33,0,18.68,clear sky
160,Tongren,CN,27.7172,109.1853,74.35,79,70,1.05,light rain
161,Fairlie,GB,55.756,-4.8556,67.12,67,1,5.64,clear sky
162,Port Alfred,ZA,-33.5906,26.891,65.7,43,0,9.26,clear sky
163,Saurimo,AO,-9.6608,20.3916,74.25,38,87,4.54,overcast clouds
164,Kodinsk,RU,58.6881,99.1844,42.82,56,58,0.49,broken clouds
165,Santa Cruz Cabralia,BR,-16.2781,-39.0247,80.83,74,40,8.32,scattered clouds
166,Iqaluit,CA,63.7506,-68.5145,32.7,83,96,5.01,overcast clouds
167,Kruisfontein,ZA,-34.0033,24.7314,66.88,20,0,6.8,clear sky
168,Vestmannaeyjar,IS,63.4427,-20.2734,49.19,93,75,11.5,mist
169,Lorengau,PG,-2.0226,147.2712,79.41,85,98,12.44,overcast clouds
170,Boyolangu,ID,-8.1181,111.8935,75.7,93,60,2.24,broken clouds
171,Askino,RU,56.0901,56.5783,61.88,65,6,4.76,clear sky
172,Coquimbo,CL,-29.9533,-71.3436,60.73,75,9,4.03,clear sky
173,Dunedin,NZ,-45.8742,170.5036,44.8,86,0,1.01,clear sky
174,Hasaki,JP,35.7333,140.8333,66.6,90,100,4.9,overcast clouds
175,Zdvinsk,RU,54.7021,78.661,58.41,66,5,5.82,clear sky
176,Mundo Nuevo,MX,18.7,-95.5,86.59,61,81,0.45,broken clouds
177,Sept-Iles,CA,50.2001,-66.3821,53.6,60,31,11.45,scattered clouds
178,Puerto Madero,MX,14.7208,-92.4215,88.0,70,40,0.0,scattered clouds
179,Celestun,MX,20.8667,-90.4,88.11,59,56,5.97,broken clouds
180,Yukhnov,RU,54.7444,35.2297,62.71,89,71,7.27,moderate rain
181,Bentiu,SS,9.2333,29.8333,88.02,48,89,4.88,light rain
182,Suna,RU,57.8338,50.0588,66.7,60,4,1.21,clear sky
183,Clarksdale,US,34.2001,-90.5709,75.18,100,90,10.16,overcast clouds
184,Poli,TZ,-3.3333,36.8,60.17,76,84,3.49,broken clouds
185,Kajaani,FI,64.2273,27.7285,68.05,56,20,2.3,few clouds
186,Pangnirtung,CA,66.1451,-65.7125,35.4,87,16,0.54,few clouds
187,Caravelas,BR,-17.7125,-39.2481,80.67,61,21,7.65,few clouds
188,Yulara,AU,-25.2406,130.9889,49.84,53,0,4.61,clear sky
189,Upernavik,GL,72.7868,-56.1549,36.86,82,14,3.58,few clouds
190,Itarema,BR,-2.9248,-39.9167,87.48,57,21,10.09,few clouds
191,Sao Raimundo Nonato,BR,-9.0153,-42.6994,91.44,30,51,9.33,broken clouds
192,Sangar,RU,63.9242,127.4739,50.77,41,100,2.19,overcast clouds
193,Rutana,BI,-3.8667,30.1,64.29,62,95,1.97,overcast clouds
194,Butaritari,KI,3.0707,172.7902,81.63,75,7,7.25,light rain
195,Fort Nelson,CA,58.8053,-122.7002,49.59,93,90,5.75,overcast clouds
196,Guerrero Negro,MX,27.9769,-114.0611,66.78,67,81,4.9,broken clouds
197,Hervey Bay,AU,-25.2986,152.8535,57.04,83,2,3.0,clear sky
198,Puerto Maldonado,PE,-12.6,-69.1833,81.0,83,75,3.44,broken clouds
199,Makat,KZ,47.6469,53.3463,79.54,26,100,10.71,overcast clouds
200,San Vicente,AR,-26.6167,-54.1333,60.62,99,100,3.58,light rain
201,Nampa,US,43.5407,-116.5635,62.11,48,1,6.91,haze
202,Menongue,AO,-14.6585,17.691,69.1,32,94,4.05,overcast clouds
203,Cao Bang,VN,22.6667,106.25,76.51,69,100,1.61,overcast clouds
204,Aswan,EG,24.0934,32.907,98.2,10,0,14.61,clear sky
205,Bom Jesus,BR,-9.0744,-44.3586,93.79,28,7,8.99,clear sky
206,Whitehorse,CA,60.7161,-135.0538,46.31,87,100,5.01,overcast clouds
207,Namibe,AO,-15.1961,12.1522,78.22,51,34,6.46,scattered clouds
208,Sistranda,NO,63.7256,8.834,57.16,88,100,4.41,moderate rain
209,Chatrapur,IN,19.35,84.9833,86.5,78,93,18.37,overcast clouds
210,Saldanha,ZA,-33.0117,17.9442,66.72,46,31,11.7,scattered clouds
211,Waingapu,ID,-9.6567,120.2641,77.32,85,100,7.67,overcast clouds
212,Ponta Do Sol,PT,32.6667,-17.1,73.71,68,0,2.57,clear sky
213,Bagotville,AU,-28.9833,153.4167,50.79,91,4,6.64,clear sky
214,Myskhako,RU,44.6714,37.7433,65.82,75,74,5.53,broken clouds
215,Ilulissat,GL,69.2167,-51.1,39.22,81,20,5.75,few clouds
216,Dudinka,RU,69.4058,86.1778,32.04,92,98,4.74,overcast clouds
217,Tambun,ID,-6.2641,107.0712,82.11,84,49,2.62,scattered clouds
218,Ahuimanu,US,21.4447,-157.8378,74.91,72,20,6.91,few clouds
219,Taylorville,US,39.5489,-89.2945,82.27,65,75,9.22,broken clouds
220,Gao,ML,16.6362,1.637,108.93,10,36,13.98,scattered clouds
221,Rapar,IN,23.5667,70.6333,91.18,56,9,11.59,clear sky
222,Jinxiang,CN,27.4327,120.6062,67.8,78,0,4.74,clear sky
223,Atambua,ID,-9.1061,124.8925,70.07,84,76,5.46,broken clouds
224,Ola,RU,59.5833,151.2833,41.74,88,62,3.49,broken clouds
225,Tasiilaq,GL,65.6145,-37.6368,44.76,92,92,3.91,overcast clouds
226,Alice Springs,AU,-23.7,133.8833,42.35,65,0,5.48,clear sky
227,San Quintin,MX,30.4833,-115.95,74.44,71,100,1.97,overcast clouds
228,Omboue,GA,-1.5746,9.2618,80.01,82,100,8.1,overcast clouds
229,Nanakuli,US,21.3906,-158.1547,75.15,88,1,12.8,clear sky
230,Armizonskoye,RU,55.9461,67.6736,61.14,57,0,8.81,clear sky
231,Pangkalanbuun,ID,-2.6833,111.6167,75.0,97,79,0.51,broken clouds
232,Talnakh,RU,69.4865,88.3972,31.41,98,100,4.45,light snow
233,Rincon,US,32.296,-81.2354,87.71,76,75,4.9,broken clouds
234,Tuatapere,NZ,-46.1333,167.6833,42.46,86,57,3.42,broken clouds
235,Zacatepec,MX,18.65,-99.2,74.17,54,47,0.96,scattered clouds
236,Vila Velha,BR,-20.3297,-40.2925,81.97,71,40,5.01,scattered clouds
237,Sao Filipe,CV,14.8961,-24.4956,76.87,66,64,9.75,broken clouds
238,Beringovskiy,RU,63.05,179.3167,35.91,97,100,3.36,light rain
239,Stade,DE,53.6,9.4833,68.49,82,99,6.87,overcast clouds
240,Dhidhdhoo,MV,6.8833,73.1,82.78,77,86,13.62,overcast clouds
241,Cururupu,BR,-1.8283,-44.8683,89.01,53,23,4.56,few clouds
242,Nadym,RU,65.5333,72.5167,42.71,50,72,11.72,broken clouds
243,Bafia,CM,4.75,11.2333,77.88,90,95,3.49,moderate rain
244,Moron,AR,-34.6534,-58.6198,59.0,47,59,5.99,broken clouds
245,Tommot,RU,58.9564,126.2925,61.65,65,66,4.81,broken clouds
246,Lukovetskiy,RU,64.2956,41.9211,58.98,35,64,5.91,light rain
247,Praxedis Guerrero,MX,31.3667,-106.0167,90.95,12,48,26.35,scattered clouds
248,Boa Vista,BR,2.8197,-60.6733,87.78,58,75,9.22,broken clouds
249,La Rioja,ES,42.25,-2.5,71.04,46,0,9.78,clear sky
250,Turukhansk,RU,65.8167,87.9833,36.41,84,87,2.62,overcast clouds
251,Ramsar,IR,36.9226,50.6426,72.84,78,75,2.3,broken clouds
252,Ende,ID,-8.8432,121.6623,76.41,88,51,0.4,broken clouds
253,Dekar,BW,-21.5333,21.9333,58.05,39,0,8.9,clear sky
254,Leh,IN,34.1667,77.5833,55.44,22,2,6.08,clear sky
255,Nikolskoye,RU,59.7035,30.7861,76.39,44,14,5.08,few clouds
256,Nieuw Amsterdam,SR,5.8833,-55.0833,88.14,62,40,5.77,scattered clouds
257,La Asuncion,VE,11.0333,-63.8628,85.73,66,100,8.68,overcast clouds
258,Valdivia,CL,-39.8142,-73.2459,41.09,80,100,1.57,overcast clouds
259,Pedernales,DO,18.0384,-71.744,87.87,54,1,3.85,clear sky
260,Balikpapan,ID,-1.2675,116.8289,77.95,87,99,5.84,overcast clouds
261,Kavieng,PG,-2.5744,150.7967,81.99,73,91,1.23,overcast clouds
262,Khandyga,RU,62.6667,135.6,53.15,50,100,2.1,overcast clouds
263,Canterbury,GB,51.279,1.0799,73.29,80,91,6.67,overcast clouds
264,Paita,PE,-5.0892,-81.1144,75.76,72,100,10.74,overcast clouds
265,Saint-Augustin,CA,51.226,-58.6502,58.33,37,4,10.85,clear sky
266,Huarmey,PE,-10.0681,-78.1522,68.95,72,68,11.21,broken clouds
267,Manutuke,NZ,-38.6833,177.9167,56.21,86,100,7.4,heavy intensity rain
268,Buin,CL,-33.7333,-70.75,66.06,48,100,4.32,overcast clouds
269,Dagana,MR,16.5165,-15.5068,114.22,8,6,14.67,clear sky
270,Bethel,US,41.3712,-73.414,92.35,50,1,1.01,clear sky
271,Alta Floresta,BR,-9.8756,-56.0861,88.9,44,47,4.56,scattered clouds
272,Wattegama,LK,6.7989,81.4808,81.52,74,100,5.99,overcast clouds
273,Carroll,US,39.5501,-77.0164,91.54,49,1,1.99,clear sky
274,Ouadda,CF,8.0777,22.4007,81.21,62,80,3.36,broken clouds
275,Wau,SS,7.7029,27.9953,84.61,56,52,5.32,broken clouds
276,Linhares,BR,-19.3911,-40.0722,81.48,58,39,6.42,scattered clouds
277,Tiarei,PF,-17.5333,-149.3333,75.22,77,6,12.62,clear sky
278,Pochutla,MX,15.7432,-96.4661,90.82,52,92,3.2,overcast clouds
279,Kailua,US,21.4022,-157.7394,75.18,74,20,6.91,few clouds
280,Vila,PT,42.0304,-8.1588,74.75,48,81,5.97,broken clouds
281,Nyurba,RU,63.2842,118.3319,46.87,86,100,5.37,overcast clouds
282,Tocopilla,CL,-22.092,-70.1979,68.2,63,10,8.3,clear sky
283,Kaltasy,RU,55.9693,54.8032,63.5,60,3,2.51,clear sky
284,Kozan,TR,37.4552,35.8157,83.3,36,1,13.69,clear sky
285,Coihaique,CL,-45.5752,-72.0662,45.21,76,75,8.05,broken clouds
286,Porto Novo,BJ,6.4965,2.6036,84.81,65,72,9.98,broken clouds
287,Domoni,KM,-12.2569,44.5319,77.61,75,88,13.0,overcast clouds
288,Roald,NO,62.5833,6.1333,60.17,82,75,9.22,broken clouds
289,Shama,CN,33.6102,104.2852,55.11,90,99,3.18,overcast clouds
290,Araouane,ML,18.9048,-3.5265,111.94,8,3,12.08,clear sky
291,Khatanga,RU,71.9667,102.5,34.21,86,99,4.97,overcast clouds
292,Egvekinot,RU,66.3167,-179.1667,31.68,83,25,2.93,scattered clouds
293,Yerbogachen,RU,61.2767,108.0108,41.61,54,19,9.19,few clouds
294,Bilibino,RU,68.0546,166.4372,55.0,62,3,3.22,clear sky
295,Faanui,PF,-16.4833,-151.75,80.56,72,2,11.88,clear sky
296,Komsomolskiy,UZ,40.4272,71.7189,92.12,21,46,6.91,scattered clouds
297,Palana,RU,59.1167,159.9667,40.8,87,100,6.51,overcast clouds
298,Zhigansk,RU,66.7697,123.3711,47.66,42,37,7.72,scattered clouds
299,Pangody,RU,65.85,74.4859,40.26,55,93,12.71,overcast clouds
300,Staryy Nadym,RU,65.6118,72.6842,42.51,50,60,11.77,broken clouds
301,Schramberg,DE,48.224,8.3858,63.97,70,100,2.77,overcast clouds
302,Atlantic City,US,39.3643,-74.4229,92.25,56,1,11.12,clear sky
303,Sabha,LY,27.0377,14.4283,97.45,10,65,13.69,broken clouds
304,Hillsborough,US,37.5741,-122.3794,67.51,69,20,3.0,haze
305,Inongo,CD,-1.95,18.2667,71.19,94,82,4.94,light rain
306,Jalu,LY,29.0331,21.5482,89.8,15,0,14.27,clear sky
307,Funadhoo,MV,6.15,73.2667,82.67,77,100,13.11,overcast clouds
308,Sola,VU,-13.8833,167.55,79.41,77,36,13.09,scattered clouds
309,Adamas,GR,36.7333,24.4333,78.22,63,4,7.05,clear sky
310,Maisach,DE,48.2167,11.2667,67.68,87,90,1.01,overcast clouds
311,Salalah,OM,17.0151,54.0924,83.55,84,29,9.57,scattered clouds
312,Suihua,CN,46.6406,126.9969,55.47,88,20,6.17,few clouds
313,Provideniya,RU,64.3833,-173.3,36.48,74,14,4.83,few clouds
314,Sibolga,ID,1.7427,98.7792,76.46,80,5,3.65,clear sky
315,Jumla,NP,29.2747,82.1838,57.7,88,58,0.92,broken clouds
316,Kushima,JP,31.4583,131.2333,66.31,93,100,0.67,overcast clouds
317,Concepcion,CL,-36.827,-73.0498,49.8,76,0,4.61,clear sky
318,Ojinaga,MX,29.5667,-104.4167,90.57,14,1,13.8,clear sky
319,Berlevag,NO,70.8578,29.0864,42.8,71,7,8.43,clear sky
320,Coahuayana,MX,18.7333,-103.6833,90.88,44,97,4.14,overcast clouds
321,Clyde River,CA,70.4692,-68.5914,34.03,100,90,12.66,light rain
322,Mujiayingzi,CN,42.1167,118.7833,65.82,43,99,6.33,overcast clouds
323,Northam,GB,51.0333,-4.2167,69.35,79,72,6.55,broken clouds
324,Cozumel,MX,20.5083,-86.9458,87.87,66,40,16.11,scattered clouds
325,Sabang,ID,5.8933,95.3214,83.43,74,100,23.22,overcast clouds
326,Gasa,PS,31.5,34.4667,79.92,57,0,10.74,clear sky
327,Tarbagatay,RU,51.4803,107.3602,47.73,85,100,3.33,moderate rain
328,Sao Felix Do Xingu,BR,-6.6447,-51.995,91.08,42,93,5.95,overcast clouds
329,Westport,US,41.1415,-73.3579,94.17,51,1,1.01,clear sky
330,Epe,NG,6.5841,3.9834,83.03,72,54,9.82,light rain
331,Lensk,RU,60.7253,114.9278,49.87,89,100,9.89,overcast clouds
332,Cockburn Town,TC,21.4612,-71.1419,80.11,80,0,21.21,clear sky
333,Conde,BR,-7.2597,-34.9075,80.06,100,75,14.88,broken clouds
334,Kitgum,UG,3.2783,32.8867,75.87,60,85,1.9,overcast clouds
335,Chernyshevskiy,RU,63.0128,112.4714,42.12,83,96,9.22,light rain
336,Bambous Virieux,MU,-20.3428,57.7575,73.22,81,19,9.86,few clouds
337,Naze,JP,28.3667,129.4833,68.52,92,100,5.91,moderate rain
338,Atar,MR,20.5169,-13.0499,108.05,11,4,19.3,clear sky
339,Fukue,JP,32.6881,128.8419,68.97,81,100,6.11,overcast clouds
340,Vitim,RU,59.4511,112.5578,47.79,90,100,9.91,overcast clouds
341,Kharovsk,RU,59.9642,40.1912,73.49,51,16,3.09,few clouds
342,Saint Anthony,US,45.0205,-93.218,86.02,48,1,4.0,clear sky
343,Pasighat,IN,28.0667,95.3333,74.48,93,90,2.24,overcast clouds
344,Copiapo,CL,-27.3667,-70.3333,56.89,44,25,5.95,scattered clouds
345,Poniatowa,PL,51.1798,22.1309,76.91,57,52,7.29,broken clouds
346,Severo-Kurilsk,RU,50.6789,156.125,40.44,96,91,12.26,overcast clouds
347,Williston,US,48.147,-103.618,68.04,40,86,8.01,overcast clouds
348,Safranbolu,TR,41.2508,32.6942,63.54,58,5,4.12,clear sky
349,Kalemie,CD,-5.9475,29.1947,73.56,75,24,9.69,few clouds
350,Luganville,VU,-15.5333,167.1667,75.63,83,78,3.71,broken clouds
351,Caramay,PH,10.1815,119.236,79.75,83,100,2.33,overcast clouds
352,Batticaloa,LK,7.7102,81.6924,84.06,69,98,4.5,overcast clouds
353,El Castillo,MX,19.5333,-96.85,78.76,52,67,5.01,broken clouds
354,Rockhampton,AU,-23.3833,150.5,48.09,81,17,0.0,few clouds
355,Barra Do Garcas,BR,-15.89,-52.2567,87.21,34,98,4.5,overcast clouds
356,Quelimane,MZ,-17.8786,36.8883,67.39,75,77,6.91,broken clouds
357,Ancud,CL,-41.8697,-73.8203,50.23,77,100,9.37,overcast clouds
358,Verkh-Usugli,RU,52.7,115.1667,57.27,56,72,3.22,broken clouds
359,San Cristobal,VE,7.7669,-72.225,71.78,95,100,3.6,overcast clouds
360,Bubaque,GW,11.2833,-15.8333,80.1,82,8,10.98,clear sky
361,Yelizovo,RU,53.1873,158.3805,42.94,100,90,2.24,light rain
362,Broken Hill,AU,-31.95,141.4333,52.23,59,21,11.18,few clouds
363,Trincomalee,LK,8.5711,81.2335,82.65,75,78,14.54,broken clouds
364,Lavrentiya,RU,65.5833,-171.0,32.27,85,95,8.75,overcast clouds
365,Christchurch,NZ,-43.5333,172.6333,48.99,97,75,1.99,broken clouds
366,Laguna,US,38.421,-121.4238,81.25,57,1,4.0,clear sky
367,Beira,MZ,-19.8436,34.8389,73.49,68,40,13.8,light rain
368,Moyale,KE,3.5167,39.0584,75.04,48,71,8.39,broken clouds
369,Palmer,US,42.1584,-72.3287,91.31,43,20,1.99,few clouds
370,Karaton,ID,-6.3424,106.1045,79.95,95,51,4.34,moderate rain
371,Creston,US,41.0586,-94.3614,79.54,88,75,14.97,broken clouds
372,Uvinza,TZ,-5.1036,30.3911,74.19,56,96,4.43,overcast clouds
373,Pacific Grove,US,36.6177,-121.9166,60.46,83,90,3.0,overcast clouds
374,Ceratu,RO,44.0667,23.6667,77.58,53,82,2.53,broken clouds
375,Flinders,AU,-34.5833,150.8552,54.05,82,4,1.01,clear sky
376,Oranjemund,NA,-28.55,16.4333,70.03,34,0,6.22,clear sky
377,Khani,GE,41.9563,42.9566,53.17,99,100,3.65,overcast clouds
378,Matam,SN,15.6175,-13.3303,112.84,9,4,6.06,clear sky
379,Sumenep,ID,-7.0167,113.8667,80.01,81,20,5.66,few clouds
380,Mareeba,AU,-17.0,145.4333,65.12,93,58,2.77,broken clouds
381,Boone,US,39.0334,-92.3335,79.83,50,89,1.01,overcast clouds
382,Ylivieska,FI,64.0833,24.55,68.27,59,72,8.01,broken clouds
383,Mao,ES,39.8885,4.2658,75.76,46,0,14.97,clear sky
384,Jam Sahib,PK,26.2958,68.6292,95.02,42,0,19.77,clear sky
385,Nhulunbuy,AU,-12.2333,136.7667,77.61,78,40,9.22,scattered clouds
386,Wageningen,NL,51.9667,5.6667,72.05,50,40,10.56,scattered clouds
387,Baherden,TM,38.4362,57.4316,88.36,31,1,11.48,clear sky
388,Raudeberg,NO,61.9875,5.1352,60.4,85,46,5.19,scattered clouds
389,Ekibastuz,KZ,51.6667,75.3667,66.54,32,2,4.07,clear sky
390,Panacan,PH,9.2463,118.4082,81.41,81,100,1.25,overcast clouds
391,Marsabit,KE,2.3284,37.9899,73.15,41,73,18.9,broken clouds
392,Luocheng,CN,29.3848,104.0286,73.83,67,97,3.15,overcast clouds
393,Vyazemskiy,RU,47.5378,134.7525,51.4,91,20,5.75,few clouds
394,Kaniama,CD,-7.5667,24.1833,78.82,45,67,4.23,broken clouds
395,Pemangkat,ID,1.1667,108.9667,78.51,84,100,5.48,overcast clouds
396,Banswada,IN,18.3833,77.8833,83.3,64,86,9.42,overcast clouds
397,Karwar,IN,14.8,74.1333,80.64,78,64,2.77,broken clouds
398,Niagara Falls,CA,43.1001,-79.0663,85.08,58,1,14.97,clear sky
399,Okato,NZ,-39.2,173.8833,54.43,89,100,11.77,light rain
400,Paraiso,CR,9.8383,-83.8656,77.86,56,47,4.03,scattered clouds
401,Prince Rupert,CA,54.3161,-130.3201,48.29,93,90,5.75,light rain
402,Kirakira,SB,-10.4544,161.9205,79.36,85,42,8.34,scattered clouds
403,Krasnogorsk,RU,55.8225,37.3181,66.45,72,0,5.44,clear sky
404,Hirara,JP,24.8,125.2833,78.1,84,100,13.2,moderate rain
405,Meulaboh,ID,4.1363,96.1285,77.31,84,100,3.44,light rain
406,Lampang,TH,18.3333,99.5,78.33,90,100,2.75,overcast clouds
407,Yingkou,CN,40.6648,122.2283,66.7,59,29,5.93,scattered clouds
408,Rio Gallegos,AR,-51.6226,-69.2181,42.85,61,75,9.22,broken clouds
409,Fort Morgan,US,40.2503,-103.8,83.8,46,1,4.61,clear sky
410,Boda,CF,4.3189,17.4695,74.23,80,89,4.7,overcast clouds
411,Athabasca,CA,54.7169,-113.2854,55.54,51,99,16.08,overcast clouds
412,Richards Bay,ZA,-28.783,32.0377,62.11,72,0,8.43,clear sky
413,Miranda De Ebro,ES,42.6865,-2.947,76.53,47,0,10.78,clear sky
414,Grindavik,IS,63.8424,-22.4338,50.47,81,90,15.41,light rain
415,Panalingaan,PH,8.7842,117.4231,82.0,80,100,4.27,overcast clouds
416,Hofn,IS,64.2539,-15.2082,51.82,87,40,13.8,mist
417,Puerto Del Rosario,ES,28.5004,-13.8627,74.88,64,20,18.41,few clouds
418,Nkhata Bay,MW,-11.6066,34.2907,67.96,74,44,7.27,scattered clouds
419,Sao Joao Da Barra,BR,-21.6403,-41.0511,76.91,72,5,12.97,clear sky
420,Werda,BW,-25.2667,23.2833,57.49,32,0,8.97,clear sky
421,Yar-Sale,RU,66.8333,70.8333,41.56,54,78,14.38,broken clouds
422,Skibbereen,IE,51.55,-9.2667,60.6,69,63,7.36,broken clouds
423,Coos Bay,US,43.3665,-124.2179,53.85,84,75,0.0,broken clouds
424,Antofagasta,CL,-23.65,-70.4,70.21,53,1,7.99,clear sky
425,Berdigestyakh,RU,62.0989,126.6992,52.93,49,100,6.62,overcast clouds
426,Mizan Teferi,ET,6.9833,35.5833,62.55,97,62,2.57,moderate rain
427,Sibut,CF,5.718,19.0739,78.01,77,69,6.24,light rain
428,Puerto Escondido,MX,15.85,-97.0667,88.63,62,20,0.0,few clouds
429,Ambulu,ID,-8.345,113.6058,76.33,91,80,1.01,broken clouds
430,Abu Samrah,SY,35.3029,37.1841,80.17,22,0,14.56,clear sky
431,Olonets,RU,60.9847,32.9698,72.12,57,89,4.36,overcast clouds
432,Nchelenge,ZM,-9.3451,28.734,71.73,63,100,3.27,overcast clouds
433,Naryan-Mar,RU,67.6713,53.087,39.61,62,100,14.61,overcast clouds
434,Banda Aceh,ID,5.5577,95.3222,80.42,77,98,14.52,overcast clouds
435,Dicabisagan,PH,17.0818,122.4157,80.53,88,100,5.28,overcast clouds
436,Pisco,PE,-13.7,-76.2167,63.01,88,90,4.61,overcast clouds
437,Kpandu,GH,6.9954,0.2931,84.09,58,85,2.95,light rain
438,Srednekolymsk,RU,67.45,153.6833,58.66,49,45,9.17,scattered clouds
439,Capinzal,BR,-27.3436,-51.6119,64.94,93,100,0.43,light rain
440,Auki,SB,-8.7676,160.7034,77.05,86,3,3.4,clear sky
441,Petropavlovsk-Kamchatskiy,RU,53.0452,158.6483,41.59,100,90,2.3,light rain
442,Comodoro Rivadavia,AR,-45.8667,-67.5,51.66,43,0,19.57,clear sky
443,Bad Wildungen,DE,51.1196,9.1248,65.52,72,75,6.22,broken clouds
444,Tulsipur,NP,28.131,82.2973,83.07,38,20,4.88,few clouds
445,Marchena,ES,37.329,-5.4168,93.61,19,0,6.87,clear sky
446,Prainha,BR,-1.8,-53.48,88.2,54,30,5.12,scattered clouds
447,Opatija,HR,45.3392,14.3083,76.69,80,53,0.83,broken clouds
448,Umm Kaddadah,SD,13.6017,26.6876,99.66,10,23,10.83,few clouds
449,Luanda,AO,-8.8368,13.2343,80.6,74,20,9.22,few clouds
450,Tarakan,ID,3.3,117.6333,81.48,78,100,4.7,overcast clouds
451,Korla,CN,41.7597,86.1469,78.3,31,75,19.06,broken clouds
452,Igarka,RU,67.4667,86.5833,31.96,91,93,6.78,overcast clouds
453,Kupang,ID,-10.1667,123.5833,77.0,76,84,11.92,broken clouds
454,Tigzirt,DZ,36.8886,4.1198,70.86,75,32,5.84,scattered clouds
455,Monrovia,LR,6.3005,-10.7969,80.37,78,80,5.82,moderate rain
456,Tuchkovo,RU,55.6011,36.4681,65.71,89,95,5.08,overcast clouds
457,Pizhma,RU,57.8642,47.1171,66.63,68,25,4.47,scattered clouds
458,Westfield,US,42.1251,-72.7495,92.12,41,1,4.0,clear sky
459,Rivers,CA,50.0308,-100.2403,65.35,81,100,4.79,overcast clouds
460,Sayat,TM,38.7839,63.8803,98.47,12,5,11.54,clear sky
461,Mae Hong Son,TH,19.3003,97.9685,74.86,98,74,2.1,broken clouds
462,Shu,KZ,43.5983,73.7614,74.88,34,59,9.01,broken clouds
463,Worcester,US,42.3334,-71.8328,90.01,48,1,1.99,clear sky
464,Elat,IL,29.5581,34.9482,91.24,25,0,11.5,clear sky
465,Pozo Colorado,PY,-23.4923,-58.7972,80.51,45,71,5.06,broken clouds
466,Santa Maria,BR,-29.6842,-53.8069,59.7,95,100,8.05,moderate rain
467,Half Moon Bay,US,37.4636,-122.4286,68.11,69,90,1.01,haze
468,Togur,RU,58.3631,82.8265,56.21,95,100,4.09,light rain
469,Roshchino,RU,60.2519,29.6085,75.74,57,100,9.62,overcast clouds
470,Castelo Do Piaui,BR,-5.3222,-41.5525,94.57,30,9,5.48,clear sky
471,Altay,CN,47.8667,88.1167,54.0,39,2,4.43,clear sky
472,Lahaina,US,20.8783,-156.6825,74.95,81,1,9.04,clear sky
473,Marsa Matruh,EG,31.3525,27.2453,73.71,54,0,12.71,clear sky
474,Aquidauana,BR,-20.4711,-55.7872,93.16,24,52,8.43,broken clouds
475,Denpasar,ID,-8.65,115.2167,80.26,94,20,1.66,few clouds
476,Male,MV,4.1748,73.5089,83.3,75,69,14.29,broken clouds
477,Sao Paulo De Olivenca,BR,-3.3783,-68.8725,87.89,59,65,4.72,broken clouds
478,Tazmalt,DZ,36.3868,4.3989,77.09,59,41,10.31,scattered clouds
479,Winnemucca,US,40.973,-117.7357,64.45,20,1,3.96,clear sky
480,Chicama,PE,-7.8447,-79.1469,66.74,67,72,9.69,broken clouds
481,Henties Bay,NA,-22.116,14.2845,73.31,38,0,5.44,clear sky
482,Wlodawa,PL,51.55,23.55,77.31,63,100,9.86,overcast clouds
483,Kavaratti,IN,10.5669,72.642,82.85,74,100,9.91,overcast clouds
484,Mapimi,MX,25.8167,-103.85,86.77,17,12,11.3,few clouds
485,Channelview,US,29.7761,-95.1146,88.14,77,75,7.63,broken clouds
486,Taoudenni,ML,22.6783,-3.9836,117.0,5,54,10.49,broken clouds
487,Asilah,MA,35.465,-6.0348,82.36,39,0,21.09,clear sky
488,Ihosy,MG,-22.4,46.1167,57.63,77,61,12.24,broken clouds
489,Abu Zabad,SD,12.35,29.25,84.74,44,93,17.47,overcast clouds
490,Qaqortoq,GL,60.7167,-46.0333,55.9,80,100,5.37,overcast clouds
491,Purificacion,CO,3.8587,-74.9313,84.38,64,66,2.1,broken clouds
492,Dessau,DE,51.8386,12.2456,79.52,71,74,3.0,broken clouds
493,Grand Baie,MU,-20.0182,57.5802,73.45,83,62,3.0,broken clouds
494,Sharkan,RU,57.2989,53.8712,63.36,63,2,5.7,clear sky
495,Seabra,BR,-12.4186,-41.7703,78.87,48,100,11.1,overcast clouds
496,Krasnoselkup,RU,65.7,82.4667,39.33,65,97,11.61,overcast clouds
497,Necochea,AR,-38.5473,-58.7368,57.04,53,40,4.38,scattered clouds
498,Saint-Louis,SN,16.3333,-15.0,113.61,8,6,13.38,clear sky
499,Opuwo,NA,-18.0607,13.84,74.59,22,0,9.66,clear sky
500,Chapais,CA,49.7834,-74.8492,71.2,42,43,7.25,scattered clouds
501,Maragogi,BR,-9.0122,-35.2225,80.85,73,28,9.51,scattered clouds
502,Berea,US,41.3662,-81.8543,85.69,52,20,8.05,few clouds
503,Charlestown,AU,-32.95,151.6667,53.69,77,2,1.99,clear sky
504,Lopatino,RU,52.6195,45.8118,62.04,87,66,6.33,broken clouds
505,Kidal,ML,18.4411,1.4078,109.35,9,12,12.55,few clouds
506,Khor,RU,47.8861,134.9464,51.01,93,64,6.49,broken clouds
507,Aranzazu,CO,5.2712,-75.4904,68.97,77,92,2.01,overcast clouds
508,Manaskent,RU,42.7275,47.6785,67.42,83,40,1.23,scattered clouds
509,Nemuro,JP,43.3236,145.575,51.57,90,93,8.79,overcast clouds
510,Savannah Bight,HN,16.45,-85.85,87.01,79,98,19.48,overcast clouds
511,Lata,PT,40.1629,-8.3327,83.05,39,0,10.51,clear sky
512,Ust-Nera,RU,64.5667,143.2,61.92,72,99,7.67,overcast clouds
513,Sokoni,TZ,-6.4333,39.55,78.17,70,10,20.62,clear sky
514,Mezen,RU,65.8522,44.24,42.93,53,5,11.32,clear sky
515,Mahibadhoo,MV,3.7833,72.9667,83.35,75,6,14.05,clear sky
516,Nahrin,AF,36.0649,69.1334,82.78,17,0,3.0,clear sky
517,Zhezkazgan,KZ,47.8043,67.7144,71.01,21,55,10.71,broken clouds
518,Udaipura,IN,23.0833,78.5,89.28,47,47,3.49,scattered clouds
519,Cap Malheureux,MU,-19.9842,57.6142,73.47,83,59,3.0,broken clouds
520,Salym,RU,60.0625,71.4789,53.24,88,96,5.21,overcast clouds
521,Eslov,SE,55.8393,13.3039,76.48,55,21,7.94,few clouds
522,Glassboro,US,39.7029,-75.1118,92.66,53,1,1.01,clear sky
523,Banjar,ID,-8.19,114.9675,80.46,90,56,4.18,broken clouds
524,The Valley,AI,18.217,-63.0578,83.82,74,99,20.74,overcast clouds
525,Djambala,CG,-2.5447,14.7533,77.86,63,80,3.67,broken clouds
526,Viedma,AR,-40.8135,-62.9967,53.01,39,100,10.25,overcast clouds
527,Svetlaya,RU,46.5389,138.3297,50.16,92,56,5.64,broken clouds
528,Talavera De La Reina,ES,39.9635,-4.8308,86.86,20,0,5.41,clear sky
529,Blagoyevo,RU,63.3667,47.9167,61.84,46,75,6.8,broken clouds
530,North Bend,US,43.4065,-124.2243,52.16,84,75,0.0,broken clouds
531,Margate,GB,51.3813,1.3862,73.18,81,38,7.45,scattered clouds
532,Lagoa,PT,39.05,-27.9833,64.44,88,99,14.61,overcast clouds
533,Walvis Bay,NA,-22.9575,14.5053,73.87,36,1,4.43,clear sky
534,Jiuquan,CN,39.7432,98.5174,66.15,19,85,5.41,light rain
535,Shache,CN,38.4167,77.2406,85.53,16,54,7.67,broken clouds
536,Choya,RU,52.0108,86.5467,52.5,91,88,4.16,overcast clouds
537,Hay River,CA,60.8156,-115.7999,43.61,64,59,10.0,broken clouds
538,Wijchen,NL,51.8,5.7167,72.09,55,90,1.99,overcast clouds
539,Buraydah,SA,26.326,43.975,103.53,7,2,10.49,clear sky
540,Santa Cruz,BO,-17.8,-63.1667,74.3,74,97,1.68,overcast clouds
541,Awbari,LY,26.5921,12.7805,99.05,8,38,13.6,scattered clouds
542,Brusyliv,UA,50.2845,29.5263,71.71,70,75,5.66,broken clouds
543,General Jose Eduvigis Diaz,PY,-27.1667,-58.4167,68.04,93,100,9.01,overcast clouds
544,Ratekau,DE,53.95,10.7333,70.47,77,0,3.09,clear sky
545,Lundazi,ZM,-12.2929,33.1782,63.37,57,88,8.84,overcast clouds
546,Lincoln,US,40.8,-96.667,81.54,69,75,5.01,broken clouds
547,Shiyan,CN,32.6475,110.7781,77.83,65,99,2.71,light rain
548,Maumere,ID,-8.6199,122.2111,78.03,81,84,3.76,broken clouds
549,San Jose,US,37.3394,-121.895,69.03,67,20,7.0,few clouds
550,Launceston,AU,-41.45,147.1667,55.8,97,90,4.0,overcast clouds
551,Kiunga,PG,-6.1219,141.2906,73.04,99,97,1.14,overcast clouds
552,Sulecin,PL,52.4443,15.1168,80.31,50,98,3.74,overcast clouds
553,Brewster,US,41.3973,-73.6171,92.95,48,1,1.99,clear sky
554,Makhinjauri,GE,41.6739,41.694,60.66,88,75,1.66,broken clouds
555,Rafai,CF,4.95,23.9167,78.87,68,90,2.98,overcast clouds
556,Serenje,ZM,-13.2325,30.2352,61.65,51,93,7.45,overcast clouds
557,Beloha,MG,-25.1667,45.05,63.86,67,81,15.46,broken clouds
558,Sardinia,GR,38.8833,21.2,83.21,44,42,5.23,scattered clouds
559,Moose Factory,CA,51.2585,-80.6094,71.65,43,29,7.7,scattered clouds
560,Tutoia,BR,-2.7619,-42.2744,87.78,55,23,2.44,few clouds
561,Sesheke,ZM,-17.4759,24.2968,64.27,37,99,6.11,overcast clouds
562,Pioner,RU,55.3166,85.9508,56.64,94,40,9.37,scattered clouds
563,Aste,IT,45.7906,11.0961,69.15,86,68,3.18,moderate rain
564,Loreto,MX,22.2667,-101.9667,73.78,34,44,3.33,scattered clouds
565,Wick,GB,58.4333,-3.0833,56.95,76,75,5.75,broken clouds
566,Havoysund,NO,70.9963,24.6622,47.28,65,4,3.76,clear sky
567,Atherton,GB,53.5237,-2.4935,70.75,58,81,8.5,broken clouds
568,Morant Bay,JM,17.8815,-76.4093,88.63,70,45,15.26,scattered clouds
569,Mecca,SA,21.4267,39.8261,92.91,41,10,8.68,clear sky
570,Japura,ID,-0.3167,102.35,76.98,86,86,1.03,overcast clouds
571,Minsk Mazowiecki,PL,52.1794,21.5725,76.42,50,70,7.11,broken clouds
572,Veinticinco De Mayo,AR,-35.4323,-60.1727,57.06,62,94,5.01,overcast clouds
573,Nea Stira,GR,38.1833,24.2,83.98,50,13,9.31,few clouds
574,Mount Gambier,AU,-37.8333,140.7667,56.73,68,100,13.42,overcast clouds
575,Ileza,RU,61.0533,43.9002,63.01,74,52,4.88,broken clouds
576,Kumluca,TR,36.3703,30.2869,75.04,54,0,7.18,clear sky
577,Mathathane,BW,-22.2687,28.7495,62.06,51,45,15.66,scattered clouds
578,Gimli,CA,50.6336,-96.9907,74.05,70,59,10.27,broken clouds
579,Garachine,PA,8.0647,-78.3628,82.87,76,84,2.1,broken clouds
580,Praia Da Vitoria,PT,38.7333,-27.0667,70.75,83,99,2.68,overcast clouds
581,Suluq,LY,31.6682,20.2521,82.96,26,3,19.46,clear sky
582,Myitkyina,MM,25.3833,97.4,74.95,96,18,0.92,few clouds
583,Foundiougne,SN,14.1333,-16.4667,91.74,36,0,15.17,clear sky
584,Empalme,MX,27.9667,-110.8167,91.45,40,20,1.81,few clouds
585,Visnes,NO,59.3556,5.2242,61.18,82,0,10.36,clear sky
586,Mahanoro,MG,-19.9,48.8,68.56,85,59,11.79,light rain
587,Newtownards,GB,54.5924,-5.6909,63.27,76,75,1.99,broken clouds
588,Vidim,RU,56.4088,103.1106,42.33,80,31,2.44,scattered clouds
589,Hope,US,33.6671,-93.5916,78.85,64,98,5.59,overcast clouds
590,Lazaro Cardenas,MX,17.9583,-102.2,88.12,54,56,4.68,broken clouds
591,Moa,CU,20.6569,-74.9403,81.7,78,54,17.02,broken clouds
592,Calera,US,33.1029,-86.7536,73.24,97,90,1.01,overcast clouds
593,Rawson,AR,-43.3002,-65.1023,51.57,44,82,20.8,broken clouds
594,Nsanje,MW,-16.92,35.262,66.22,74,98,2.82,overcast clouds
595,Ouro Branco,BR,-20.5208,-43.6919,76.05,47,79,1.1,broken clouds
596,Orapa,BW,-21.2833,25.3667,59.67,40,0,8.37,clear sky
597,Vangaindrano,MG,-23.35,47.6,66.58,87,69,11.72,moderate rain
598,Bafq,IR,31.6128,55.4107,99.57,6,0,4.03,clear sky
599,Tumpat,MY,6.1978,102.171,79.2,86,100,6.2,overcast clouds
600,Tokmak,UA,47.2514,35.7058,61.47,81,89,9.82,overcast clouds
601,Kologriv,RU,58.8275,44.3178,70.43,56,11,3.53,few clouds
602,Benghazi,LY,32.1167,20.0667,75.02,57,7,13.8,clear sky
603,Lyuban,BY,52.7985,28.0048,65.01,72,86,7.99,overcast clouds
604,Orlik,RU,52.5178,99.825,38.43,77,61,4.92,broken clouds
605,Guatire,VE,10.4762,-66.5427,79.3,80,100,3.22,overcast clouds
606,Parsabad,IR,39.6482,47.9174,70.12,68,40,19.57,scattered clouds
607,Dalton,US,34.7698,-84.9702,79.29,92,75,1.99,drizzle
608,Binzhou,CN,37.3667,118.0167,78.8,39,99,12.48,light rain
609,Fairbanks,US,64.8378,-147.7164,57.16,66,1,0.0,clear sky
610,Wana,PK,32.2989,69.5725,85.55,34,0,4.68,clear sky
611,Padang,ID,-0.9492,100.3543,77.2,83,87,4.32,overcast clouds
612,Poum,NC,-20.2333,164.0167,72.54,60,93,18.72,overcast clouds
613,Shimanovsk,RU,52.0,127.7,54.81,55,29,7.36,scattered clouds
614,Olga,RU,43.7444,135.2892,52.39,93,0,6.2,clear sky
615,Port Hedland,AU,-20.3167,118.5667,71.65,64,40,5.75,scattered clouds
616,Suntar,RU,62.1444,117.6319,49.08,80,100,5.46,overcast clouds
617,Asbe Teferi,ET,9.0833,40.8667,65.16,74,60,8.39,light rain
618,Doha,QA,25.2867,51.5333,91.38,84,0,5.75,haze
619,Sanjwal,PK,33.7608,72.4336,95.94,25,0,3.09,clear sky
620,Hovd,MN,48.0056,91.6419,50.05,35,12,7.16,few clouds
621,Krasnyy Chikoy,RU,50.3643,108.7512,45.12,95,100,4.99,overcast clouds
622,Thunder Bay,CA,48.4001,-89.3168,81.99,99,100,5.91,overcast clouds
623,Lasa,IT,46.6166,10.7002,69.71,82,99,4.72,overcast clouds
624,Methven,NZ,-43.6333,171.65,44.46,100,100,2.86,light rain
625,Cartagena,CO,10.3997,-75.5144,86.13,69,100,8.97,overcast clouds
626,Prado,BR,-17.3411,-39.2208,80.17,63,16,8.5,few clouds
627,Jaque,PA,7.5175,-78.1703,82.31,79,51,3.78,light rain
628,Narsaq,GL,60.9167,-46.05,55.62,67,100,4.72,overcast clouds
629,Lichuan,CN,30.3,108.85,63.12,69,98,2.04,light rain
630,Aykhal,RU,66.0,111.5,39.56,87,100,17.9,light rain
631,Sitka,US,57.0531,-135.33,49.89,81,90,3.44,overcast clouds
632,Barth,DE,54.3635,12.7249,75.63,68,18,8.08,few clouds
633,Fuzhou,CN,26.0614,119.3061,71.49,85,1,2.71,clear sky
634,Revelstoke,CA,50.9832,-118.2023,50.02,76,90,5.75,overcast clouds
635,Gola Gokarannath,IN,28.0833,80.4667,95.45,25,30,6.33,scattered clouds
636,Chapleau,CA,47.8405,-83.4034,82.6,54,58,9.84,broken clouds
637,Le Port,RE,-20.9373,55.2919,73.4,80,67,6.58,broken clouds
638,Ngawen,ID,-7.0032,111.3129,76.55,87,33,4.79,light rain
639,Pereyaslovskaya,RU,45.8412,39.0238,63.79,77,65,8.39,broken clouds
640,Haines Junction,CA,60.7522,-137.5108,48.36,78,80,4.54,broken clouds
641,Kharp,RU,66.8014,65.8081,40.89,53,58,9.24,broken clouds
642,Gamboma,CG,-1.8764,15.8644,83.97,60,40,4.29,scattered clouds
643,Bani,DO,18.2833,-70.3333,87.75,52,28,16.22,scattered clouds
644,Mankono,CI,8.0586,-6.1897,96.13,34,73,10.31,broken clouds
645,Leningradskiy,RU,69.3833,178.4167,33.28,91,92,11.21,overcast clouds
646,Ilo,PE,-17.6394,-71.3375,67.17,70,72,9.17,broken clouds
647,Rudnya,RU,54.947,31.0934,73.53,80,12,6.08,few clouds
648,Corning,US,42.1428,-77.0547,86.05,52,75,9.4,broken clouds
649,North Platte,US,41.1239,-100.7654,81.0,62,1,7.0,clear sky
650,Mwense,ZM,-10.3845,28.698,70.95,50,96,6.08,overcast clouds
651,Sao Jose Da Coroa Grande,BR,-8.8978,-35.1478,81.1,71,21,9.42,few clouds
652,Nuevo Imperial,PE,-13.0754,-76.3172,67.78,69,37,3.69,scattered clouds
653,Ghanzi,BW,-21.5667,21.7833,58.23,38,0,9.24,clear sky
654,Fuerte Olimpo,PY,-21.0415,-57.8738,91.54,30,92,8.03,moderate rain
655,Simbahan,PH,6.3032,120.5836,83.46,71,80,3.38,broken clouds
656,Manicore,BR,-5.8092,-61.3003,92.48,46,98,3.11,overcast clouds
657,Selenginsk,RU,52.0064,106.8647,48.61,96,100,4.97,overcast clouds
658,Golyshmanovo,RU,56.3979,68.3728,60.01,63,2,9.1,clear sky
659,Sile,TR,41.1754,29.6133,77.67,45,5,1.99,clear sky
660,Jesus Maria,AR,-30.9815,-64.0942,62.78,45,37,8.81,scattered clouds
661,Genhe,CN,50.7833,121.5167,49.51,56,1,3.2,clear sky
662,Nekhayevskiy,RU,50.4106,41.7561,65.1,80,64,5.46,broken clouds
663,Karlskrona,SE,56.1616,15.5866,77.45,54,27,9.33,scattered clouds
664,Careiro Da Varzea,BR,-3.2003,-59.8119,90.23,52,19,4.29,few clouds
665,Zhenlai,CN,45.8495,123.2973,61.79,52,8,7.02,clear sky
666,Dingle,PH,10.9995,122.6711,77.05,84,100,2.57,light rain
667,Te Anau,NZ,-45.4167,167.7167,36.48,93,22,1.28,few clouds
668,Qandala,SO,11.472,49.8728,91.29,51,13,2.3,few clouds
